[{"name": "Polytechnic Hardware", "service_area": "Unknown", "phone": "", "email": "", "website": "", "address": "", "craft_type": "shop:hardware", "source": "OSM_NearbySearch", "status": "scraped", "score": 5, "latitude": 43.6565928, "longitude": -79.3760346, "distance_km": 0.69, "scraped_at": "2025-09-09T01:58:57.497181"}, {"name": "\u8eca\u5b50", "service_area": "Unknown", "phone": "", "email": "", "website": "", "address": "", "craft_type": "shop:hardware", "source": "OSM_NearbySearch", "status": "scraped", "score": 5, "latitude": 43.6540121, "longitude": -79.393584, "distance_km": 0.84, "scraped_at": "2025-09-09T01:58:57.497181"}, {"name": "Paintstore", "service_area": "Unknown", "phone": "", "email": "", "website": "", "address": "", "craft_type": "shop:hardware", "source": "OSM_NearbySearch", "status": "scraped", "score": 5, "latitude": 43.6552096, "longitude": -79.396754, "distance_km": 1.11, "scraped_at": "2025-09-09T01:58:57.497181"}, {"name": "St. Lawrence Pro Hardware", "service_area": "Unknown", "phone": "", "email": "", "website": "", "address": "", "craft_type": "shop:hardware", "source": "OSM_NearbySearch", "status": "scraped", "score": 5, "latitude": 43.6496931, "longitude": -79.3677786, "distance_km": 1.3, "scraped_at": "2025-09-09T01:58:57.497181"}, {"name": "Dudley's Hardware", "service_area": "Toronto", "phone": "+1-416-923-5751", "email": "", "website": "", "address": "511 Church Street", "craft_type": "shop:hardware", "source": "OSM_NearbySearch", "status": "scraped", "score": 7, "latitude": 43.6661768, "longitude": -79.381001, "distance_km": 1.45, "scraped_at": "2025-09-09T01:58:57.497181"}, {"name": "CAAM United Hardware", "service_area": "Toronto", "phone": "", "email": "", "website": "", "address": "160 Augusta Avenue", "craft_type": "shop:hardware", "source": "OSM_NearbySearch", "status": "scraped", "score": 5, "latitude": 43.6529715, "longitude": -79.4015434, "distance_km": 1.48, "scraped_at": "2025-09-09T01:58:57.497181"}, {"name": "Home Hardware", "service_area": "Unknown", "phone": "+1-416-924-3921", "email": "", "website": "https://www.homehardware.ca/en/store/12748", "address": "485 Parliament Street", "craft_type": "shop:hardware", "source": "OSM_NearbySearch", "status": "scraped", "score": 10, "latitude": 43.6642728, "longitude": -79.3677919, "distance_km": 1.75, "scraped_at": "2025-09-09T01:58:57.497181"}, {"name": "TTB Trading Co. Ltd.", "service_area": "Unknown", "phone": "", "email": "", "website": "", "address": "415 College Street", "craft_type": "shop:hardware", "source": "OSM_NearbySearch", "status": "scraped", "score": 5, "latitude": 43.6564907, "longitude": -79.4067757, "distance_km": 1.93, "scraped_at": "2025-09-09T01:58:57.497181"}, {"name": "Moneysworth & Best", "service_area": "Unknown", "phone": "", "email": "", "website": "", "address": "", "craft_type": "shop:hardware", "source": "OSM_NearbySearch", "status": "scraped", "score": 5, "latitude": 43.67058, "longitude": -79.386817, "distance_km": 1.95, "scraped_at": "2025-09-09T01:58:57.497181"}]