[{"name": "Port Nelson United Church", "service_area": "Hamilton", "phone": "", "email": "", "website": "http://www.portnelsonunitedchurch.com/", "address": "3132 South Drive", "craft_type": "building:material:stone", "source": "OSM_Auto", "status": "scraped", "score": 8, "latitude": 43.3387978, "longitude": -79.7775443, "scraped_at": "2025-09-09T16:44:04.162892"}, {"name": "LiUNA Station", "service_area": "Hamilton", "phone": "", "email": "", "website": "", "address": "360 James Street North", "craft_type": "building:material:stone", "source": "OSM_Auto", "status": "scraped", "score": 5, "latitude": 43.2658616, "longitude": -79.8640934, "scraped_at": "2025-09-09T16:44:04.162892"}, {"name": "St. John's Roman Catholic Church", "service_area": "Hamilton", "phone": "", "email": "", "website": "", "address": "", "craft_type": "building:material:stone", "source": "OSM_Auto", "status": "scraped", "score": 5, "latitude": 43.331451, "longitude": -79.8051986, "scraped_at": "2025-09-09T16:44:04.162892"}, {"name": "Christ's Church Anglican Cathedral", "service_area": "Hamilton", "phone": "", "email": "", "website": "", "address": "252 James Street North", "craft_type": "building:material:stone", "source": "OSM_Auto", "status": "scraped", "score": 5, "latitude": 43.262924, "longitude": -79.8656924, "scraped_at": "2025-09-09T16:44:04.162892"}, {"name": "Hexagon", "service_area": "Hamilton", "phone": "", "email": "", "website": "https://www.hexagonrestaurant.com/", "address": "", "craft_type": "construction:yes", "source": "OSM_Auto", "status": "scraped", "score": 8, "latitude": 43.4455606, "longitude": -79.6675775, "scraped_at": "2025-09-09T16:44:27.361475"}, {"name": "Odd Burger", "service_area": "Hamilton", "phone": "905-815-0001", "email": "", "website": "https://oddburger.com/", "address": "A2-280 North Service Road West", "craft_type": "construction:yes", "source": "OSM_Auto", "status": "scraped", "score": 10, "latitude": 43.4469367, "longitude": -79.7054866, "scraped_at": "2025-09-09T16:44:27.361475"}, {"name": "Harbourside Way", "service_area": "Hamilton", "phone": "", "email": "", "website": "", "address": "", "craft_type": "construction:yes", "source": "OSM_Auto", "status": "scraped", "score": 5, "latitude": 43.2769983, "longitude": -79.857987, "scraped_at": "2025-09-09T16:44:27.361475"}, {"name": "Preserve West", "service_area": "Hamilton", "phone": "", "email": "", "website": "", "address": "", "craft_type": "construction:yes", "source": "OSM_Auto", "status": "scraped", "score": 5, "latitude": 43.4569286, "longitude": -79.7599892, "scraped_at": "2025-09-09T16:44:27.361475"}]