[{"name": "Portrait Memorials Inc", "service_area": "Mississauga", "phone": "", "email": "", "website": "http://www.portraitmemorials.com/", "address": "", "craft_type": "craft:stonemason", "source": "OSM_Auto", "status": "scraped", "score": 8, "latitude": 43.5778547, "longitude": -79.5580829, "scraped_at": "2025-09-09T02:30:39.715170"}, {"name": "A&A Masonry Inc.", "service_area": "Mississauga", "phone": "", "email": "", "website": "https://aamasonry.ca/", "address": "33 Billingham Road", "craft_type": "craft:stonemason", "source": "OSM_Auto", "status": "scraped", "score": 8, "latitude": 43.6330145, "longitude": -79.5499421, "scraped_at": "2025-09-09T02:30:39.715170"}, {"name": "C.B. Marblecraft", "service_area": "Mississauga", "phone": "+1-416-741-1585", "email": "info@cbmarblecraft.com", "website": "http://cbmarblecraft.com/", "address": "17 Airview Road", "craft_type": "craft:stonemason", "source": "OSM_Auto", "status": "scraped", "score": 12, "latitude": 43.72056, "longitude": -79.5753131, "scraped_at": "2025-09-09T02:30:39.715170"}, {"name": "Ritcey Custom Cabinetry", "service_area": "Mississauga", "phone": "", "email": "", "website": "", "address": "2133 Royal Windsor Drive", "craft_type": "craft:carpenter", "source": "OSM_Auto", "status": "scraped", "score": 5, "latitude": 43.5097692, "longitude": -79.6331727, "scraped_at": "2025-09-09T02:30:43.150041"}, {"name": "McKerr Custom Carpentry", "service_area": "Mississauga", "phone": "", "email": "", "website": "", "address": "2133 Royal Windsor Drive", "craft_type": "craft:carpenter", "source": "OSM_Auto", "status": "scraped", "score": 5, "latitude": 43.5096292, "longitude": -79.6330723, "scraped_at": "2025-09-09T02:30:43.150041"}, {"name": "Detail Roofing", "service_area": "Mississauga", "phone": "+1-905-230-2969", "email": "detail@detailroof.ca", "website": "https://detailroof.ca/", "address": "5700 Timberlea Boulevard", "craft_type": "craft:roofer", "source": "OSM_Auto", "status": "scraped", "score": 12, "latitude": 43.6387098, "longitude": -79.65152, "scraped_at": "2025-09-09T02:30:57.155146"}, {"name": "Armour Shield Roofing", "service_area": "Mississauga", "phone": "", "email": "", "website": "https://armourshieldroofing.ca/mississauga", "address": "4470 Tucana Court", "craft_type": "craft:roofer", "source": "OSM_Auto", "status": "scraped", "score": 8, "latitude": 43.6013718, "longitude": -79.6488579, "scraped_at": "2025-09-09T02:30:57.155146"}, {"name": "Can-Sky Roofing & Sheet Metal Incorporated", "service_area": "Mississauga", "phone": "+1-416-763-5131", "email": "info@canskyroofing.com", "website": "https://www.canskyroofing.com/", "address": "26 Taber Road", "craft_type": "craft:roofer", "source": "OSM_Auto", "status": "scraped", "score": 12, "latitude": 43.7191947, "longitude": -79.5751307, "scraped_at": "2025-09-09T02:30:57.155146"}, {"name": "Hunter Douglas Gallery Sunshades", "service_area": "Mississauga", "phone": "+1-905-274-2223", "email": "", "website": "http://www.sunshadeblinds.ca", "address": "", "craft_type": "shop:hardware", "source": "OSM_Auto", "status": "scraped", "score": 10, "latitude": 43.5467692, "longitude": -79.5922069, "scraped_at": "2025-09-09T02:31:04.491134"}, {"name": "Home Hardware", "service_area": "Mississauga", "phone": "", "email": "", "website": "https://www.homehardware.ca/en/store/12609", "address": "", "craft_type": "shop:hardware", "source": "OSM_Auto", "status": "scraped", "score": 8, "latitude": 43.4805548, "longitude": -79.6549115, "scraped_at": "2025-09-09T02:31:04.491134"}]